STOP_ID,DIRECTION_ID,STOP_NAME,STATION_NAME,STATION_DESCRIPTIVE_NAME,MAP_ID,ADA,RED,BLUE,G,BRN,P,Y,Pnk,O,longitude,latitude
30162,W,18th (54th/Cermak-bound),18th,18th (Pink Line),40830,TRUE,FALSE,FALSE,FALSE,FALSE,FALSE,FALSE,TRUE,FALSE,-87.66914,41.8579
30161,E,18th (Loop-bound),18th,18th (Pink Line),40830,TRUE,FALSE,FALSE,FALSE,FALSE,FALSE,FALSE,TRUE,FALSE,-87.66914,41.8579
30022,N,35th/Archer (Loop-bound),35th/Archer,35th/Archer (Orange Line),40120,TRUE,FALSE,FALSE,FALSE,FALSE,FALSE,FALSE,FALSE,TRUE,-87.68062,41.82935
30023,S,35th/Archer (Midway-bound),35th/Archer,35th/Archer (Orange Line),40120,TRUE,FALSE,FALSE,FALSE,FALSE,FALSE,FALSE,FALSE,TRUE,-87.68062,41.82935
30213,N,35-Bronzeville-IIT (Harlem-bound),35th-Bronzeville-IIT,35th-Bronzeville-IIT (Green Line),41120,TRUE,FALSE,FALSE,TRUE,FALSE,FALSE,FALSE,FALSE,FALSE,-87.62582,41.83167
30214,S,35-Bronzeville-IIT (63rd-bound),35th-Bronzeville-IIT,35th-Bronzeville-IIT (Green Line),41120,TRUE,FALSE,FALSE,TRUE,FALSE,FALSE,FALSE,FALSE,FALSE,-87.62582,41.83167
30245,N,43rd (Harlem-bound),43rd,43rd (Green Line),41270,TRUE,FALSE,FALSE,TRUE,FALSE,FALSE,FALSE,FALSE,FALSE,-87.61902,41.81646
30246,S,43rd (63rd-bound),43rd,43rd (Green Line),41270,TRUE,FALSE,FALSE,TRUE,FALSE,FALSE,FALSE,FALSE,FALSE,-87.61902,41.81646
30210,S,47th (63rd-bound),47th,47th (Green Line),41080,TRUE,FALSE,FALSE,TRUE,FALSE,FALSE,FALSE,FALSE,FALSE,-87.61882,41.8092
30237,N,47th (Howard-bound),47th,47th (Red Line),41230,TRUE,TRUE,FALSE,FALSE,FALSE,FALSE,FALSE,FALSE,FALSE,-87.63094,41.81031
30238,S,47th (95th-bound),47th,47th (Red Line),41230,TRUE,TRUE,FALSE,FALSE,FALSE,FALSE,FALSE,FALSE,FALSE,-87.63094,41.81031
30209,N,47th (Harlem-bound),47th,47th (Green Line),41080,TRUE,FALSE,FALSE,TRUE,FALSE,FALSE,FALSE,FALSE,FALSE,-87.61882,41.8092
30025,S,51st (63rd-bound),51st,51st (Green Line),40130,TRUE,FALSE,FALSE,TRUE,FALSE,FALSE,FALSE,FALSE,FALSE,-87.61848,41.80209
30024,N,51st (Harlem-bound),51st,51st (Green Line),40130,TRUE,FALSE,FALSE,TRUE,FALSE,FALSE,FALSE,FALSE,FALSE,-87.61848,41.80209
30114,W,54th/Cermak (Terminal arrival),54th/Cermak,54th/Cermak (Pink Line),40580,TRUE,FALSE,FALSE,FALSE,FALSE,FALSE,FALSE,TRUE,FALSE,-87.75669,41.85177
30113,E,54th/Cermak (Loop-bound),54th/Cermak,54th/Cermak (Pink Line),40580,TRUE,FALSE,FALSE,FALSE,FALSE,FALSE,FALSE,TRUE,FALSE,-87.75669,41.85177
30177,N,63rd (Howard-bound),63rd,63rd (Red Line),40910,TRUE,TRUE,FALSE,FALSE,FALSE,FALSE,FALSE,FALSE,FALSE,-87.63095,41.78053
30178,S,63rd (95th-bound),63rd,63rd (Red Line),40910,TRUE,TRUE,FALSE,FALSE,FALSE,FALSE,FALSE,FALSE,FALSE,-87.63095,41.78053
30191,N,69th (Howard-bound),69th,69th (Red Line),40990,TRUE,TRUE,FALSE,FALSE,FALSE,FALSE,FALSE,FALSE,FALSE,-87.62572,41.76836
30192,S,69th (95th-bound),69th,69th (Red Line),40990,TRUE,TRUE,FALSE,FALSE,FALSE,FALSE,FALSE,FALSE,FALSE,-87.62572,41.76836
30047,S,79th (95th-bound),79th,79th (Red Line),40240,TRUE,TRUE,FALSE,FALSE,FALSE,FALSE,FALSE,FALSE,FALSE,-87.62511,41.75041
30046,N,79th (Howard-bound),79th,79th (Red Line),40240,TRUE,TRUE,FALSE,FALSE,FALSE,FALSE,FALSE,FALSE,FALSE,-87.62511,41.75041
30275,N,87th (Howard-bound),87th,87th (Red Line),41430,TRUE,TRUE,FALSE,FALSE,FALSE,FALSE,FALSE,FALSE,FALSE,-87.62471,41.73537
30276,S,87th (95th-bound),87th,87th (Red Line),41430,TRUE,TRUE,FALSE,FALSE,FALSE,FALSE,FALSE,FALSE,FALSE,-87.62471,41.73537
30088,N,95th/Dan Ryan (Howard-bound),95th/Dan Ryan,95th/Dan Ryan (Red Line),40450,TRUE,TRUE,FALSE,FALSE,FALSE,FALSE,FALSE,FALSE,FALSE,-87.62434,41.72237
30089,S,95th/Dan Ryan (95th-bound),95th/Dan Ryan,95th/Dan Ryan (Red Line),40450,TRUE,TRUE,FALSE,FALSE,FALSE,FALSE,FALSE,FALSE,FALSE,-87.62434,41.72237
30131,N,Adams/Wabash (Outer Loop),Adams/Wabash,"Adams/Wabash (Brown, Green, Orange, Pink & Purple lines)",40680,FALSE,FALSE,FALSE,TRUE,TRUE,FALSE,FALSE,FALSE,FALSE,-87.62603,41.8795
30132,S,Adams/Wabash (Inner Loop),Adams/Wabash,"Adams/Wabash (Brown, Green, Orange, Pink & Purple lines)",40680,FALSE,FALSE,FALSE,TRUE,FALSE,TRUE,FALSE,TRUE,TRUE,-87.62603,41.8795
30274,S,Addison (95th-bound),Addison,Addison (Red Line),41420,TRUE,TRUE,FALSE,FALSE,FALSE,FALSE,FALSE,FALSE,FALSE,-87.65362,41.94742
30278,S,Addison (Loop-bound),Addison,Addison (Brown Line),41440,TRUE,FALSE,FALSE,FALSE,TRUE,FALSE,FALSE,FALSE,FALSE,-87.67464,41.94702
30239,N,Addison (O'Hare-bound),Addison,Addison (Blue Line),41240,TRUE,FALSE,TRUE,FALSE,FALSE,FALSE,FALSE,FALSE,FALSE,-87.71906,41.94738
30277,N,Addison (Kimball-bound),Addison,Addison (Brown Line),41440,TRUE,FALSE,FALSE,FALSE,TRUE,FALSE,FALSE,FALSE,FALSE,-87.67464,41.94702
30240,S,Addison (Forest Pk-bound),Addison,Addison (Blue Line),41240,TRUE,FALSE,TRUE,FALSE,FALSE,FALSE,FALSE,FALSE,FALSE,-87.71906,41.94738
30273,N,Addison (Howard-bound),Addison,Addison (Red Line),41420,TRUE,TRUE,FALSE,FALSE,FALSE,FALSE,FALSE,FALSE,FALSE,-87.65362,41.94742
30230,S,Argyle (95th-bound),Argyle,Argyle (Red Line),41200,TRUE,TRUE,FALSE,FALSE,FALSE,FALSE,FALSE,FALSE,FALSE,-87.65853,41.97345
30229,N,Argyle (Howard-bound),Argyle,Argyle (Red Line),41200,TRUE,TRUE,FALSE,FALSE,FALSE,FALSE,FALSE,FALSE,FALSE,-87.65853,41.97345
30127,N,Armitage (Kimball-Linden-bound),Armitage,Armitage (Brown & Purple lines),40660,TRUE,FALSE,FALSE,FALSE,TRUE,TRUE,FALSE,FALSE,FALSE,-87.65264,41.91821
30128,S,Armitage (Loop-bound),Armitage,Armitage (Brown & Purple lines),40660,TRUE,FALSE,FALSE,FALSE,TRUE,TRUE,FALSE,FALSE,FALSE,-87.65264,41.91821
30033,W,Ashland (Harlem-54th/Cermak-bound),Ashland,Ashland (Green & Pink lines),40170,TRUE,FALSE,FALSE,TRUE,FALSE,FALSE,FALSE,TRUE,FALSE,-87.66696,41.88526
30032,E,Ashland (Loop-63rd-bound),Ashland,Ashland (Green & Pink lines),40170,TRUE,FALSE,FALSE,TRUE,FALSE,FALSE,FALSE,TRUE,FALSE,-87.66696,41.88526
30206,S,Ashland (Midway-bound),Ashland,Ashland (Orange Line),41060,TRUE,FALSE,FALSE,FALSE,FALSE,FALSE,FALSE,FALSE,TRUE,-87.66531,41.83923
30205,N,Ashland (Loop-bound),Ashland,Ashland (Orange Line),41060,TRUE,FALSE,FALSE,FALSE,FALSE,FALSE,FALSE,FALSE,TRUE,-87.66531,41.83923
30057,W,Ashland/63rd (Terminal arrival),Ashland/63rd,Ashland/63rd (Green Line),40290,TRUE,FALSE,FALSE,TRUE,FALSE,FALSE,FALSE,FALSE,FALSE,-87.66376,41.77886
30056,E,Ashland/63rd (Harlem-bound),Ashland/63rd,Ashland/63rd (Green Line),40290,TRUE,FALSE,FALSE,TRUE,FALSE,FALSE,FALSE,FALSE,FALSE,-87.66376,41.77886
30002,W,Austin (Forest Pk-bound),Austin,Austin (Blue Line),40010,FALSE,FALSE,TRUE,FALSE,FALSE,FALSE,FALSE,FALSE,FALSE,-87.77681,41.87085
30001,E,Austin (O'Hare-bound),Austin,Austin (Blue Line),40010,FALSE,FALSE,TRUE,FALSE,FALSE,FALSE,FALSE,FALSE,FALSE,-87.77681,41.87085
30243,E,Austin (63rd-bound),Austin,Austin (Green Line),41260,FALSE,FALSE,FALSE,TRUE,FALSE,FALSE,FALSE,FALSE,FALSE,-87.77413,41.88729
30244,W,Austin (Harlem-bound),Austin,Austin (Green Line),41260,FALSE,FALSE,FALSE,TRUE,FALSE,FALSE,FALSE,FALSE,FALSE,-87.77413,41.88729
30012,N,Belmont (O'Hare Branch) (O'Hare-bound),Belmont,Belmont (Blue Line),40060,FALSE,FALSE,TRUE,FALSE,FALSE,FALSE,FALSE,FALSE,FALSE,-87.71235,41.93813
30258,S,Belmont (Loop-bound),Belmont,"Belmont (Red, Brown & Purple lines)",41320,TRUE,FALSE,FALSE,FALSE,TRUE,TRUE,FALSE,FALSE,FALSE,-87.65338,41.93975
30013,S,Belmont (O'Hare Branch) (Forest Pk-bound),Belmont,Belmont (Blue Line),40060,FALSE,FALSE,TRUE,FALSE,FALSE,FALSE,FALSE,FALSE,FALSE,-87.71235,41.93813
30256,S,Belmont (95th-bound),Belmont,"Belmont (Red, Brown & Purple lines)",41320,TRUE,TRUE,FALSE,FALSE,FALSE,FALSE,FALSE,FALSE,FALSE,-87.65338,41.93975
30255,N,Belmont (Howard-bound),Belmont,"Belmont (Red, Brown & Purple lines)",41320,TRUE,TRUE,FALSE,FALSE,FALSE,FALSE,FALSE,FALSE,FALSE,-87.65338,41.93975
30257,N,Belmont (Kimball-Linden-bound),Belmont,"Belmont (Red, Brown & Purple lines)",41320,TRUE,FALSE,FALSE,FALSE,TRUE,TRUE,FALSE,FALSE,FALSE,-87.65338,41.93975
30067,S,Berwyn (95th-bound),Berwyn,Berwyn (Red Line),40340,TRUE,TRUE,FALSE,FALSE,FALSE,FALSE,FALSE,FALSE,FALSE,-87.65866,41.97798
30066,N,Berwyn (Howard-bound),Berwyn,Berwyn (Red Line),40340,TRUE,TRUE,FALSE,FALSE,FALSE,FALSE,FALSE,FALSE,FALSE,-87.65866,41.97798
30268,S,Bryn Mawr (95th-bound),Bryn Mawr,Bryn Mawr (Red Line),41380,TRUE,TRUE,FALSE,FALSE,FALSE,FALSE,FALSE,FALSE,FALSE,-87.65884,41.9835
30267,N,Bryn Mawr (Howard-bound),Bryn Mawr,Bryn Mawr (Red Line),41380,TRUE,TRUE,FALSE,FALSE,FALSE,FALSE,FALSE,FALSE,FALSE,-87.65884,41.9835
30266,W,California (Harlem-bound),California,California (Green Line),41360,TRUE,FALSE,FALSE,TRUE,FALSE,FALSE,FALSE,FALSE,FALSE,-87.69623,41.88422
30111,N,California (O'Hare-bound),California,California (Blue Line),40570,FALSE,FALSE,TRUE,FALSE,FALSE,FALSE,FALSE,FALSE,FALSE,-87.69689,41.92193
30265,E,California (63rd-bound),California,California (Green Line),41360,TRUE,FALSE,FALSE,TRUE,FALSE,FALSE,FALSE,FALSE,FALSE,-87.69623,41.88422
30087,W,California (54th/Cermak-bound),California,California (Pink Line),40440,TRUE,FALSE,FALSE,FALSE,FALSE,FALSE,FALSE,TRUE,FALSE,-87.69477,41.8541
30112,S,California (Forest Pk-bound),California,California (Blue Line),40570,FALSE,FALSE,TRUE,FALSE,FALSE,FALSE,FALSE,FALSE,FALSE,-87.69689,41.92193
30086,E,California (Loop-bound),California,California (Pink Line),40440,TRUE,FALSE,FALSE,FALSE,FALSE,FALSE,FALSE,TRUE,FALSE,-87.69477,41.8541
30054,E,Central (63rd-bound),Central,Central (Green Line),40280,TRUE,FALSE,FALSE,TRUE,FALSE,FALSE,FALSE,FALSE,FALSE,-87.76565,41.88738
30055,W,Central (Harlem-bound),Central,Central (Green Line),40280,TRUE,FALSE,FALSE,TRUE,FALSE,FALSE,FALSE,FALSE,FALSE,-87.76565,41.88738
30241,N,Central (Linden-bound),Central,Central (Purple Line),41250,FALSE,FALSE,FALSE,FALSE,FALSE,TRUE,FALSE,FALSE,FALSE,-87.68561,42.06398
30242,S,Central (Howard-Loop-bound),Central,Central (Purple Line),41250,FALSE,FALSE,FALSE,FALSE,FALSE,TRUE,FALSE,FALSE,FALSE,-87.68561,42.06398
30152,W,Central Park (54th/Cermak-bound),Central Park,Central Park (Pink Line),40780,TRUE,FALSE,FALSE,FALSE,FALSE,FALSE,FALSE,TRUE,FALSE,-87.71484,41.85383
30151,E,Central Park (Loop-bound),Central Park,Central Park (Pink Line),40780,TRUE,FALSE,FALSE,FALSE,FALSE,FALSE,FALSE,TRUE,FALSE,-87.71484,41.85383
30193,N,Cermak-Chinatown (Howard-bound),Cermak-Chinatown,Cermak-Chinatown (Red Line),41000,TRUE,TRUE,FALSE,FALSE,FALSE,FALSE,FALSE,FALSE,FALSE,-87.63096,41.8532
30194,S,Cermak-Chinatown (95th-bound),Cermak-Chinatown,Cermak-Chinatown (Red Line),41000,TRUE,TRUE,FALSE,FALSE,FALSE,FALSE,FALSE,FALSE,FALSE,-87.63096,41.8532
30382,S,Cermak-McCormick Place (63rd-bound),Cermak-McCormick Place,Cermak-McCormick Place (Green Line),41690,TRUE,FALSE,FALSE,TRUE,FALSE,FALSE,FALSE,FALSE,FALSE,-87.6264,41.85311
30381,N,Cermak-McCormick Place (Harlem-bound),Cermak-McCormick Place,Cermak-McCormick Place (Green Line),41690,TRUE,FALSE,FALSE,TRUE,FALSE,FALSE,FALSE,FALSE,FALSE,-87.6264,41.85311
30280,S,Chicago (95th-bound),Chicago,Chicago (Red Line),41450,TRUE,TRUE,FALSE,FALSE,FALSE,FALSE,FALSE,FALSE,FALSE,-87.62817,41.89667
30138,S,Chicago (Loop-bound),Chicago,Chicago (Brown & Purple lines),40710,TRUE,FALSE,FALSE,FALSE,TRUE,TRUE,FALSE,FALSE,FALSE,-87.63592,41.89681
30272,S,Chicago (Forest Pk-bound),Chicago,Chicago (Blue Line),41410,FALSE,FALSE,TRUE,FALSE,FALSE,FALSE,FALSE,FALSE,FALSE,-87.65521,41.89607
30271,N,Chicago (O'Hare-bound),Chicago,Chicago (Blue Line),41410,FALSE,FALSE,TRUE,FALSE,FALSE,FALSE,FALSE,FALSE,FALSE,-87.65521,41.89607
30279,N,Chicago (Howard-bound),Chicago,Chicago (Red Line),41450,TRUE,TRUE,FALSE,FALSE,FALSE,FALSE,FALSE,FALSE,FALSE,-87.62817,41.89667
30137,N,Chicago (Kimball-Linden-bound),Chicago,Chicago (Brown & Purple lines),40710,TRUE,FALSE,FALSE,FALSE,TRUE,TRUE,FALSE,FALSE,FALSE,-87.63592,41.89681
30187,E,Cicero (O'Hare-bound),Cicero,Cicero (Blue Line),40970,FALSE,FALSE,TRUE,FALSE,FALSE,FALSE,FALSE,FALSE,FALSE,-87.74515,41.87157
30094,E,Cicero (63rd-bound),Cicero,Cicero (Green Line),40480,TRUE,FALSE,FALSE,TRUE,FALSE,FALSE,FALSE,FALSE,FALSE,-87.74469,41.88651
30188,W,Cicero (Forest Pk-bound),Cicero,Cicero (Blue Line),40970,FALSE,FALSE,TRUE,FALSE,FALSE,FALSE,FALSE,FALSE,FALSE,-87.74515,41.87157
30082,E,Cicero (Loop-bound),Cicero,Cicero (Pink Line),40420,TRUE,FALSE,FALSE,FALSE,FALSE,FALSE,FALSE,TRUE,FALSE,-87.74533,41.85182
30083,W,Cicero (54th/Cermak-bound),Cicero,Cicero (Pink Line),40420,TRUE,FALSE,FALSE,FALSE,FALSE,FALSE,FALSE,TRUE,FALSE,-87.74533,41.85182
30009,W,Cicero (Harlem-bound),Cicero,Cicero (Green Line),40480,TRUE,FALSE,FALSE,TRUE,FALSE,FALSE,FALSE,FALSE,FALSE,-87.74469,41.88651
30121,N,Clark/Division (Howard-bound),Clark/Division,Clark/Division (Red Line),40630,TRUE,TRUE,FALSE,FALSE,FALSE,FALSE,FALSE,FALSE,FALSE,-87.63141,41.90392
30122,S,Clark/Division (95th-bound),Clark/Division,Clark/Division (Red Line),40630,TRUE,TRUE,FALSE,FALSE,FALSE,FALSE,FALSE,FALSE,FALSE,-87.63141,41.90392
30075,W,Clark/Lake (Outer Loop),Clark/Lake,"Clark/Lake (Blue, Brown, Green, Orange, Purple & Pink lines)",40380,TRUE,FALSE,FALSE,TRUE,TRUE,FALSE,FALSE,FALSE,FALSE,-87.63088,41.88573
30374,S,Clark/Lake (Forest Pk-bound),Clark/Lake,"Clark/Lake (Blue, Brown, Green, Orange, Purple & Pink lines)",40380,TRUE,FALSE,TRUE,FALSE,FALSE,FALSE,FALSE,FALSE,FALSE,-87.63088,41.88573
30375,N,Clark/Lake (O'Hare-bound),Clark/Lake,"Clark/Lake (Blue, Brown, Green, Orange, Purple & Pink lines)",40380,TRUE,FALSE,TRUE,FALSE,FALSE,FALSE,FALSE,FALSE,FALSE,-87.63088,41.88573
30074,E,Clark/Lake (Inner Loop),Clark/Lake,"Clark/Lake (Blue, Brown, Green, Orange, Purple & Pink lines)",40380,TRUE,FALSE,FALSE,TRUE,FALSE,TRUE,FALSE,TRUE,TRUE,-87.63088,41.88573
30221,E,Clinton (Loop-63rd-bound),Clinton,Clinton (Green & Pink lines),41160,TRUE,FALSE,FALSE,TRUE,FALSE,FALSE,FALSE,TRUE,FALSE,-87.64178,41.88567
30085,W,Clinton (Forest Pk-bound),Clinton,Clinton (Blue Line),40430,FALSE,FALSE,TRUE,FALSE,FALSE,FALSE,FALSE,FALSE,FALSE,-87.64098,41.87553
30084,E,Clinton (O'Hare-bound),Clinton,Clinton (Blue Line),40430,FALSE,FALSE,TRUE,FALSE,FALSE,FALSE,FALSE,FALSE,FALSE,-87.64098,41.87553
30222,W,Clinton (Harlem-54th/Cermak-bound),Clinton,Clinton (Green & Pink lines),41160,TRUE,FALSE,FALSE,TRUE,FALSE,FALSE,FALSE,TRUE,FALSE,-87.64178,41.88567
30291,E,Conservatory (63rd-bound),Conservatory,Conservatory (Green Line),41670,TRUE,FALSE,FALSE,TRUE,FALSE,FALSE,FALSE,FALSE,FALSE,-87.71652,41.8849
30292,W,Conservatory (Harlem-bound),Conservatory,Conservatory (Green Line),41670,TRUE,FALSE,FALSE,TRUE,FALSE,FALSE,FALSE,FALSE,FALSE,-87.71652,41.8849
30140,W,Cottage Grove (Harlem-bound),Cottage Grove,Cottage Grove (Green Line),40720,TRUE,FALSE,FALSE,TRUE,FALSE,FALSE,FALSE,FALSE,FALSE,-87.60585,41.7803
30139,E,Cottage Grove (Terminal arrival),Cottage Grove,Cottage Grove (Green Line),40720,TRUE,FALSE,FALSE,TRUE,FALSE,FALSE,FALSE,FALSE,FALSE,-87.60585,41.7803
30044,N,Cumberland (O'Hare-bound),Cumberland,Cumberland (Blue Line),40230,TRUE,FALSE,TRUE,FALSE,FALSE,FALSE,FALSE,FALSE,FALSE,-87.83802,41.98424
30045,S,Cumberland (Forest Pk-bound),Cumberland,Cumberland (Blue Line),40230,TRUE,FALSE,TRUE,FALSE,FALSE,FALSE,FALSE,FALSE,FALSE,-87.83802,41.98424
30115,N,Damen/Milwaukee (O'Hare-bound),Damen,Damen (Blue Line),40590,FALSE,FALSE,TRUE,FALSE,FALSE,FALSE,FALSE,FALSE,FALSE,-87.67743,41.90974
30387,E,Damen (63rd-bound),Damen,Damen (Green Line),41710,TRUE,FALSE,FALSE,TRUE,FALSE,FALSE,FALSE,FALSE,FALSE,-87.67689,41.88497
30388,W,Damen (Harlem-bound),Damen,Damen (Green Line),41710,TRUE,FALSE,FALSE,TRUE,FALSE,FALSE,FALSE,FALSE,FALSE,-87.67689,41.88497
30041,W,Damen (54th/Cermak-bound),Damen,Damen (Pink Line),40210,TRUE,FALSE,FALSE,FALSE,FALSE,FALSE,FALSE,TRUE,FALSE,-87.67597,41.85451
30019,S,Damen (Loop-bound),Damen,Damen (Brown Line),40090,TRUE,FALSE,FALSE,FALSE,TRUE,FALSE,FALSE,FALSE,FALSE,-87.67863,41.96628
30116,S,Damen/Milwaukee (Forest Pk-bound),Damen,Damen (Blue Line),40590,FALSE,FALSE,TRUE,FALSE,FALSE,FALSE,FALSE,FALSE,FALSE,-87.67743,41.90974
30040,E,Damen (Loop-bound),Damen,Damen (Pink Line),40210,TRUE,FALSE,FALSE,FALSE,FALSE,FALSE,FALSE,TRUE,FALSE,-87.67597,41.85451
30018,N,Damen (Kimball-bound),Damen,Damen (Brown Line),40090,TRUE,FALSE,FALSE,FALSE,TRUE,FALSE,FALSE,FALSE,FALSE,-87.67863,41.96628
30010,N,Davis (Linden-bound),Davis,Davis (Purple Line),40050,TRUE,FALSE,FALSE,FALSE,FALSE,TRUE,FALSE,FALSE,FALSE,-87.68354,42.04771
30011,S,Davis (Howard-Loop-bound),Davis,Davis (Purple Line),40050,TRUE,FALSE,FALSE,FALSE,FALSE,TRUE,FALSE,FALSE,FALSE,-87.68354,42.04771
30133,N,Dempster (Linden-bound),Dempster,Dempster (Purple Line),40690,FALSE,FALSE,FALSE,FALSE,FALSE,TRUE,FALSE,FALSE,FALSE,-87.6816,42.04165
30134,S,Dempster (Howard-Loop-bound),Dempster,Dempster (Purple Line),40690,FALSE,FALSE,FALSE,FALSE,FALSE,TRUE,FALSE,FALSE,FALSE,-87.6816,42.04165
30027,S,Dempster-Skokie (Howard-bound),Dempster-Skokie,Dempster-Skokie  (Yellow Line),40140,TRUE,FALSE,FALSE,FALSE,FALSE,FALSE,TRUE,FALSE,FALSE,-87.75191,42.03895
30026,N,Dempster-Skokie (Arrival),Dempster-Skokie,Dempster-Skokie  (Yellow Line),40140,TRUE,FALSE,FALSE,FALSE,FALSE,FALSE,TRUE,FALSE,FALSE,-87.75191,42.03895
30104,S,Diversey (Loop-bound),Diversey,Diversey (Brown & Purple lines),40530,TRUE,FALSE,FALSE,FALSE,TRUE,TRUE,FALSE,FALSE,FALSE,-87.65313,41.93273
30103,N,Diversey (Kimball-Linden-bound),Diversey,Diversey (Brown & Purple lines),40530,TRUE,FALSE,FALSE,FALSE,TRUE,TRUE,FALSE,FALSE,FALSE,-87.65313,41.93273
30062,N,Division (O'Hare-bound),Division,Division (Blue Line),40320,FALSE,FALSE,TRUE,FALSE,FALSE,FALSE,FALSE,FALSE,FALSE,-87.66649,41.90335
30063,S,Division (Forest Pk-bound),Division,Division (Blue Line),40320,FALSE,FALSE,TRUE,FALSE,FALSE,FALSE,FALSE,FALSE,FALSE,-87.66649,41.90335
30077,W,Forest Park (Terminal Arrival),Forest Park,Forest Park (Blue Line),40390,TRUE,FALSE,TRUE,FALSE,FALSE,FALSE,FALSE,FALSE,FALSE,-87.81731,41.87425
30076,E,Forest Park (O'Hare-bound),Forest Park,Forest Park (Blue Line),40390,TRUE,FALSE,TRUE,FALSE,FALSE,FALSE,FALSE,FALSE,FALSE,-87.81731,41.87425
30101,N,Foster (Linden-bound),Foster,Foster (Purple Line),40520,FALSE,FALSE,FALSE,FALSE,FALSE,TRUE,FALSE,FALSE,FALSE,-87.68356,42.05416
30102,S,Foster (Howard-Loop-bound),Foster,Foster (Purple Line),40520,FALSE,FALSE,FALSE,FALSE,FALSE,TRUE,FALSE,FALSE,FALSE,-87.68356,42.05416
30168,S,Francisco (Loop-bound),Francisco,Francisco (Brown Line),40870,TRUE,FALSE,FALSE,FALSE,TRUE,FALSE,FALSE,FALSE,FALSE,-87.70164,41.96604
30167,N,Francisco (Kimball-bound),Francisco,Francisco (Brown Line),40870,TRUE,FALSE,FALSE,FALSE,TRUE,FALSE,FALSE,FALSE,FALSE,-87.70164,41.96604
30235,N,Fullerton (Kimball-Linden-bound),Fullerton,"Fullerton (Red, Brown & Purple lines)",41220,TRUE,FALSE,FALSE,FALSE,TRUE,TRUE,FALSE,FALSE,FALSE,-87.65286,41.92505
30233,N,Fullerton (Howard-bound),Fullerton,"Fullerton (Red, Brown & Purple lines)",41220,TRUE,TRUE,FALSE,FALSE,FALSE,FALSE,FALSE,FALSE,FALSE,-87.65286,41.92505
30236,S,Fullerton (Loop-bound),Fullerton,"Fullerton (Red, Brown & Purple lines)",41220,TRUE,FALSE,FALSE,FALSE,TRUE,TRUE,FALSE,FALSE,FALSE,-87.65286,41.92505
30234,S,Fullerton (95th-bound),Fullerton,"Fullerton (Red, Brown & Purple lines)",41220,TRUE,TRUE,FALSE,FALSE,FALSE,FALSE,FALSE,FALSE,FALSE,-87.65286,41.92505
30224,S,Garfield (95th-bound),Garfield,Garfield (Red Line),41170,TRUE,TRUE,FALSE,FALSE,FALSE,FALSE,FALSE,FALSE,FALSE,-87.63115,41.79542
30223,N,Garfield (Howard-bound),Garfield,Garfield (Red Line),41170,TRUE,TRUE,FALSE,FALSE,FALSE,FALSE,FALSE,FALSE,FALSE,-87.63115,41.79542
30100,S,Garfield (63rd-bound),Garfield,Garfield (Green Line),40510,TRUE,FALSE,FALSE,TRUE,FALSE,FALSE,FALSE,FALSE,FALSE,-87.61832,41.79517
30099,N,Garfield (Harlem-bound),Garfield,Garfield (Green Line),40510,TRUE,FALSE,FALSE,TRUE,FALSE,FALSE,FALSE,FALSE,FALSE,-87.61832,41.79517
30065,S,Grand/State (95th-bound),Grand,Grand (Red Line),40330,TRUE,TRUE,FALSE,FALSE,FALSE,FALSE,FALSE,FALSE,FALSE,-87.62802,41.89166
30096,S,Grand/Milwaukee (Forest Pk-bound),Grand,Grand (Blue Line),40490,FALSE,FALSE,TRUE,FALSE,FALSE,FALSE,FALSE,FALSE,FALSE,-87.64757,41.89118
30095,N,Grand/Milwaukee (O'Hare-bound),Grand,Grand (Blue Line),40490,FALSE,FALSE,TRUE,FALSE,FALSE,FALSE,FALSE,FALSE,FALSE,-87.64757,41.89118
30064,N,Grand/State (Howard-bound),Grand,Grand (Red Line),40330,TRUE,TRUE,FALSE,FALSE,FALSE,FALSE,FALSE,FALSE,FALSE,-87.62802,41.89166
30148,S,Granville (95th-bound),Granville,Granville (Red Line),40760,TRUE,TRUE,FALSE,FALSE,FALSE,FALSE,FALSE,FALSE,FALSE,-87.6592,41.99366
30147,N,Granville (Howard-bound),Granville,Granville (Red Line),40760,TRUE,TRUE,FALSE,FALSE,FALSE,FALSE,FALSE,FALSE,FALSE,-87.6592,41.99366
30184,W,Halsted/63rd (Ashland-bound),Halsted,Halsted (Green Line),40940,TRUE,FALSE,FALSE,TRUE,FALSE,FALSE,FALSE,FALSE,FALSE,-87.64424,41.77894
30183,E,Halsted/63rd (Harlem-bound),Halsted,Halsted (Green Line),40940,TRUE,FALSE,FALSE,TRUE,FALSE,FALSE,FALSE,FALSE,FALSE,-87.64424,41.77894
30216,S,Halsted (Midway-bound),Halsted,Halsted (Orange Line),41130,TRUE,FALSE,FALSE,FALSE,FALSE,FALSE,FALSE,FALSE,TRUE,-87.64808,41.84678
30215,N,Halsted (Loop-bound),Halsted,Halsted (Orange Line),41130,TRUE,FALSE,FALSE,FALSE,FALSE,FALSE,FALSE,FALSE,TRUE,-87.64808,41.84678
30190,W,Harlem (Forest Pk Branch) (Terminal arrival),Harlem,Harlem (Blue Line - Forest Park Branch),40980,FALSE,FALSE,TRUE,FALSE,FALSE,FALSE,FALSE,FALSE,FALSE,-87.80696,41.87349
30145,N,Harlem (O'Hare Branch) (O'Hare-bound),Harlem,Harlem (Blue Line - O'Hare Branch),40750,TRUE,FALSE,TRUE,FALSE,FALSE,FALSE,FALSE,FALSE,FALSE,-87.8089,41.98227
30146,S,Harlem (O'Hare Branch) (Forest Pk-bound),Harlem,Harlem (Blue Line - O'Hare Branch),40750,TRUE,FALSE,TRUE,FALSE,FALSE,FALSE,FALSE,FALSE,FALSE,-87.8089,41.98227
30189,E,Harlem (Forest Pk Branch) (O'Hare-bound),Harlem,Harlem (Blue Line - Forest Park Branch),40980,FALSE,FALSE,TRUE,FALSE,FALSE,FALSE,FALSE,FALSE,FALSE,-87.80696,41.87349
30004,W,Harlem (Terminal arrival),Harlem/Lake,Harlem/Lake (Green Line),40020,TRUE,FALSE,FALSE,TRUE,FALSE,FALSE,FALSE,FALSE,FALSE,-87.80317,41.88684
30003,E,Harlem (63rd-bound),Harlem/Lake,Harlem/Lake (Green Line),40020,TRUE,FALSE,FALSE,TRUE,FALSE,FALSE,FALSE,FALSE,FALSE,-87.80317,41.88684
30165,E,H.W. Library (Outer Loop),Harold Washington Library-State/Van Buren,"Harold Washington Library-State/Van Buren (Brown, Orange, Purple & Pink lines)",40850,TRUE,FALSE,FALSE,FALSE,TRUE,FALSE,FALSE,FALSE,FALSE,-87.62819,41.87686
30166,W,H.W. Library (Inner Loop),Harold Washington Library-State/Van Buren,"Harold Washington Library-State/Van Buren (Brown, Orange, Purple & Pink lines)",40850,TRUE,FALSE,FALSE,FALSE,FALSE,TRUE,FALSE,TRUE,TRUE,-87.62819,41.87686
30286,S,Harrison (95th-bound),Harrison,Harrison (Red Line),41490,FALSE,TRUE,FALSE,FALSE,FALSE,FALSE,FALSE,FALSE,FALSE,-87.62747,41.87403
30285,N,Harrison (Howard-bound),Harrison,Harrison (Red Line),41490,FALSE,TRUE,FALSE,FALSE,FALSE,FALSE,FALSE,FALSE,FALSE,-87.62747,41.87403
30174,S,Howard (95th-Bound),Howard,"Howard (Red, Purple & Yellow lines)",40900,TRUE,TRUE,FALSE,FALSE,FALSE,FALSE,FALSE,FALSE,FALSE,-87.67289,42.01906
30175,N,"Howard (Linden, Skokie-bound)",Howard,"Howard (Red, Purple & Yellow lines)",40900,TRUE,FALSE,FALSE,FALSE,FALSE,TRUE,TRUE,FALSE,FALSE,-87.67289,42.01906
30173,N,Howard (Terminal arrival),Howard,"Howard (Red, Purple & Yellow lines)",40900,TRUE,TRUE,FALSE,FALSE,FALSE,FALSE,FALSE,FALSE,FALSE,-87.67289,42.01906
30176,S,Howard (Terminal arrival),Howard,"Howard (Red, Purple & Yellow lines)",40900,TRUE,FALSE,FALSE,FALSE,FALSE,TRUE,TRUE,FALSE,FALSE,-87.67289,42.01906
30158,W,Illinois Medical District (Forest Pk-bound),Illinois Medical District,Illinois Medical District (Blue Line),40810,TRUE,FALSE,TRUE,FALSE,FALSE,FALSE,FALSE,FALSE,FALSE,-87.67393,41.8757
30157,E,Illinois Medical District (O'Hare-bound),Illinois Medical District,Illinois Medical District (Blue Line),40810,TRUE,FALSE,TRUE,FALSE,FALSE,FALSE,FALSE,FALSE,FALSE,-87.67393,41.8757
30058,N,Indiana (Harlem-bound),Indiana,Indiana (Green Line),40300,TRUE,FALSE,FALSE,TRUE,FALSE,FALSE,FALSE,FALSE,FALSE,-87.62137,41.82173
30059,S,Indiana (63rd-bound),Indiana,Indiana (Green Line),40300,TRUE,FALSE,FALSE,TRUE,FALSE,FALSE,FALSE,FALSE,FALSE,-87.62137,41.82173
30107,N,Irving Park (O'Hare Branch) (O'Hare-bound),Irving Park,Irving Park (Blue Line),40550,FALSE,FALSE,TRUE,FALSE,FALSE,FALSE,FALSE,FALSE,FALSE,-87.72922,41.95292
30281,N,Irving Park (Kimball-bound),Irving Park,Irving Park (Brown Line),41460,TRUE,FALSE,FALSE,FALSE,TRUE,FALSE,FALSE,FALSE,FALSE,-87.67486,41.95452
30282,S,Irving Park (Loop-bound),Irving Park,Irving Park (Brown Line),41460,TRUE,FALSE,FALSE,FALSE,TRUE,FALSE,FALSE,FALSE,FALSE,-87.67486,41.95452
30108,S,Irving Park (O'Hare Branch) (Forest Pk-bound),Irving Park,Irving Park (Blue Line),40550,FALSE,FALSE,TRUE,FALSE,FALSE,FALSE,FALSE,FALSE,FALSE,-87.72922,41.95292
30014,N,Jackson/Dearborn (O'Hare-bound),Jackson,Jackson (Blue Line),40070,TRUE,FALSE,TRUE,FALSE,FALSE,FALSE,FALSE,FALSE,FALSE,-87.62929,41.87818
30109,N,Jackson/State (Howard-bound),Jackson,Jackson (Red Line),40560,TRUE,TRUE,FALSE,FALSE,FALSE,FALSE,FALSE,FALSE,FALSE,-87.62759,41.87815
30110,S,Jackson/State (95th-bound),Jackson,Jackson (Red Line),40560,TRUE,TRUE,FALSE,FALSE,FALSE,FALSE,FALSE,FALSE,FALSE,-87.62759,41.87815
30015,S,Jackson/Dearborn (Forest Pk-bound),Jackson,Jackson (Blue Line),40070,TRUE,FALSE,TRUE,FALSE,FALSE,FALSE,FALSE,FALSE,FALSE,-87.62929,41.87818
30228,S,Jarvis (95th-bound),Jarvis,Jarvis (Red Line),41190,FALSE,TRUE,FALSE,FALSE,FALSE,FALSE,FALSE,FALSE,FALSE,-87.66909,42.01587
30227,N,Jarvis (Howard-bound),Jarvis,Jarvis (Red Line),41190,FALSE,TRUE,FALSE,FALSE,FALSE,FALSE,FALSE,FALSE,FALSE,-87.66909,42.01587
30247,N,Jefferson Park (O'Hare-bound),Jefferson Park,Jefferson Park (Blue Line),41280,TRUE,FALSE,TRUE,FALSE,FALSE,FALSE,FALSE,FALSE,FALSE,-87.76089,41.97063
30248,S,Jefferson Park (Forest Pk-bound),Jefferson Park,Jefferson Park (Blue Line),41280,TRUE,FALSE,TRUE,FALSE,FALSE,FALSE,FALSE,FALSE,FALSE,-87.76089,41.97063
30219,N,Kedzie (Loop-bound),Kedzie,Kedzie (Orange Line),41150,TRUE,FALSE,FALSE,FALSE,FALSE,FALSE,FALSE,FALSE,TRUE,-87.7044,41.80423
30207,E,Kedzie (63rd-bound),Kedzie,Kedzie (Green Line),41070,TRUE,FALSE,FALSE,TRUE,FALSE,FALSE,FALSE,FALSE,FALSE,-87.70615,41.88432
30208,W,Kedzie (Harlem-bound),Kedzie,Kedzie (Green Line),41070,TRUE,FALSE,FALSE,TRUE,FALSE,FALSE,FALSE,FALSE,FALSE,-87.70615,41.88432
30220,S,Kedzie (Midway-bound),Kedzie,Kedzie (Orange Line),41150,TRUE,FALSE,FALSE,FALSE,FALSE,FALSE,FALSE,FALSE,TRUE,-87.7044,41.80423
30202,W,Kedzie (54th/Cermak-bound),Kedzie,Kedzie (Pink Line),41040,TRUE,FALSE,FALSE,FALSE,FALSE,FALSE,FALSE,TRUE,FALSE,-87.7054,41.85396
30201,E,Kedzie (Loop-bound),Kedzie,Kedzie (Pink Line),41040,TRUE,FALSE,FALSE,FALSE,FALSE,FALSE,FALSE,TRUE,FALSE,-87.7054,41.85396
30225,N,Kedzie (Kimball-bound),Kedzie,Kedzie (Brown Line),41180,TRUE,FALSE,FALSE,FALSE,TRUE,FALSE,FALSE,FALSE,FALSE,-87.70882,41.96599
30226,S,Kedzie (Loop-bound),Kedzie,Kedzie (Brown Line),41180,TRUE,FALSE,FALSE,FALSE,TRUE,FALSE,FALSE,FALSE,FALSE,-87.70882,41.96599
30048,E,Kedzie-Homan (O'Hare-bound),Kedzie-Homan,Kedzie-Homan (Blue Line),40250,TRUE,FALSE,TRUE,FALSE,FALSE,FALSE,FALSE,FALSE,FALSE,-87.70604,41.87434
30049,W,Kedzie-Homan (Forest Pk-bound),Kedzie-Homan,Kedzie-Homan (Blue Line),40250,TRUE,FALSE,TRUE,FALSE,FALSE,FALSE,FALSE,FALSE,FALSE,-87.70604,41.87434
30250,S,Kimball (Loop-bound),Kimball,Kimball (Brown Line),41290,TRUE,FALSE,FALSE,FALSE,TRUE,FALSE,FALSE,FALSE,FALSE,-87.71306,41.9679
30249,N,Kimball (Terminal arrival),Kimball,Kimball (Brown Line),41290,TRUE,FALSE,FALSE,FALSE,TRUE,FALSE,FALSE,FALSE,FALSE,-87.71306,41.9679
30217,E,King Drive (Cottage Grove-bound),King Drive,King Drive (Green Line),41140,TRUE,FALSE,FALSE,TRUE,FALSE,FALSE,FALSE,FALSE,FALSE,-87.61554,41.78013
30218,W,King Drive (Harlem-bound),King Drive,King Drive (Green Line),41140,TRUE,FALSE,FALSE,TRUE,FALSE,FALSE,FALSE,FALSE,FALSE,-87.61554,41.78013
30117,E,Kostner (Loop-bound),Kostner,Kostner (Pink Line),40600,TRUE,FALSE,FALSE,FALSE,FALSE,FALSE,FALSE,TRUE,FALSE,-87.73325,41.85375
30118,W,Kostner (54th/Cermak-bound),Kostner,Kostner (Pink Line),40600,TRUE,FALSE,FALSE,FALSE,FALSE,FALSE,FALSE,TRUE,FALSE,-87.73325,41.85375
30290,S,Lake (95th-bound),Lake,Lake (Red Line),41660,TRUE,TRUE,FALSE,FALSE,FALSE,FALSE,FALSE,FALSE,FALSE,-87.62781,41.8848
30289,N,Lake (Howard-bound),Lake,Lake (Red Line),41660,TRUE,TRUE,FALSE,FALSE,FALSE,FALSE,FALSE,FALSE,FALSE,-87.62781,41.8848
30136,W,Laramie (Harlem-bound),Laramie,Laramie (Green Line),40700,TRUE,FALSE,FALSE,TRUE,FALSE,FALSE,FALSE,FALSE,FALSE,-87.75498,41.88716
30135,E,Laramie (63rd-bound),Laramie,Laramie (Green Line),40700,TRUE,FALSE,FALSE,TRUE,FALSE,FALSE,FALSE,FALSE,FALSE,-87.75498,41.88716
30261,E,LaSalle (O'Hare-bound),LaSalle,LaSalle (Blue Line),41340,FALSE,FALSE,TRUE,FALSE,FALSE,FALSE,FALSE,FALSE,FALSE,-87.63172,41.87556
30262,W,LaSalle (Forest Pk-bound),LaSalle,LaSalle (Blue Line),41340,FALSE,FALSE,TRUE,FALSE,FALSE,FALSE,FALSE,FALSE,FALSE,-87.63172,41.87556
30030,E,LaSalle/Van Buren (Outer Loop),LaSalle/Van Buren,"LaSalle/Van Buren (Brown, Orange, Purple & Pink lines)",40160,FALSE,FALSE,FALSE,FALSE,TRUE,FALSE,FALSE,FALSE,FALSE,-87.63173,41.8768
30031,W,LaSalle/Van Buren (Inner Loop),LaSalle/Van Buren,"LaSalle/Van Buren (Brown, Orange, Purple & Pink lines)",40160,FALSE,FALSE,FALSE,FALSE,FALSE,TRUE,FALSE,TRUE,TRUE,-87.63173,41.8768
30150,S,Lawrence (95th-bound),Lawrence,Lawrence (Red Line),40770,TRUE,TRUE,FALSE,FALSE,FALSE,FALSE,FALSE,FALSE,FALSE,-87.65849,41.96913
30149,N,Lawrence (Howard-bound),Lawrence,Lawrence (Red Line),40770,TRUE,TRUE,FALSE,FALSE,FALSE,FALSE,FALSE,FALSE,FALSE,-87.65849,41.96913
30203,N,Linden (Linden-bound),Linden,Linden (Purple Line),41050,TRUE,FALSE,FALSE,FALSE,FALSE,TRUE,FALSE,FALSE,FALSE,-87.69073,42.07315
30204,S,Linden (Howard-Loop-bound),Linden,Linden (Purple Line),41050,TRUE,FALSE,FALSE,FALSE,FALSE,TRUE,FALSE,FALSE,FALSE,-87.69073,42.07315
30198,S,Logan Square (Forest Pk-bound),Logan Square,Logan Square (Blue Line),41020,TRUE,FALSE,TRUE,FALSE,FALSE,FALSE,FALSE,FALSE,FALSE,-87.70854,41.92972
30197,N,Logan Square (O'Hare-bound),Logan Square,Logan Square (Blue Line),41020,TRUE,FALSE,TRUE,FALSE,FALSE,FALSE,FALSE,FALSE,FALSE,-87.70854,41.92972
30251,N,Loyola (Howard-bound),Loyola,Loyola (Red Line),41300,TRUE,TRUE,FALSE,FALSE,FALSE,FALSE,FALSE,FALSE,FALSE,-87.66106,42.00107
30252,S,Loyola (95th-bound),Loyola,Loyola (Red Line),41300,TRUE,TRUE,FALSE,FALSE,FALSE,FALSE,FALSE,FALSE,FALSE,-87.66106,42.00107
30052,N,Main (Linden-bound),Main,Main (Purple Line),40270,FALSE,FALSE,FALSE,FALSE,FALSE,TRUE,FALSE,FALSE,FALSE,-87.67953,42.03345
30053,S,Main (Howard-Loop-bound),Main,Main (Purple Line),40270,FALSE,FALSE,FALSE,FALSE,FALSE,TRUE,FALSE,FALSE,FALSE,-87.67953,42.03345
30090,N,Merchandise Mart (Kimball-Linden-bound),Merchandise Mart,Merchandise Mart (Brown & Purple lines),40460,TRUE,FALSE,FALSE,FALSE,TRUE,TRUE,FALSE,FALSE,FALSE,-87.63392,41.88896
30091,S,Merchandise Mart (Loop-bound),Merchandise Mart,Merchandise Mart (Brown & Purple lines),40460,TRUE,FALSE,FALSE,FALSE,TRUE,TRUE,FALSE,FALSE,FALSE,-87.63392,41.88896
30182,S,Midway (Arrival),Midway,Midway (Orange Line),40930,TRUE,FALSE,FALSE,FALSE,FALSE,FALSE,FALSE,FALSE,TRUE,-87.73787,41.78661
30181,N,Midway (Loop-bound),Midway,Midway (Orange Line),40930,TRUE,FALSE,FALSE,FALSE,FALSE,FALSE,FALSE,FALSE,TRUE,-87.73787,41.78661
30212,S,Monroe (95th-bound),Monroe,Monroe (Red Line),41090,FALSE,TRUE,FALSE,FALSE,FALSE,FALSE,FALSE,FALSE,FALSE,-87.62769,41.88074
30211,N,Monroe (Howard-bound),Monroe,Monroe (Red Line),41090,FALSE,TRUE,FALSE,FALSE,FALSE,FALSE,FALSE,FALSE,FALSE,-87.62769,41.88074
30154,S,Monroe (Forest Pk-bound),Monroe,Monroe (Blue Line),40790,FALSE,FALSE,TRUE,FALSE,FALSE,FALSE,FALSE,FALSE,FALSE,-87.62937,41.8807
30153,N,Monroe (O'Hare-bound),Monroe,Monroe (Blue Line),40790,FALSE,FALSE,TRUE,FALSE,FALSE,FALSE,FALSE,FALSE,FALSE,-87.62937,41.8807
30259,N,Montrose (O'Hare-bound),Montrose,Montrose (Blue Line),41330,FALSE,FALSE,TRUE,FALSE,FALSE,FALSE,FALSE,FALSE,FALSE,-87.74357,41.96153
30287,N,Montrose (Kimball-bound),Montrose,Montrose (Brown Line),41500,TRUE,FALSE,FALSE,FALSE,TRUE,FALSE,FALSE,FALSE,FALSE,-87.67504,41.96175
30288,S,Montrose (Loop-bound),Montrose,Montrose (Brown Line),41500,TRUE,FALSE,FALSE,FALSE,TRUE,FALSE,FALSE,FALSE,FALSE,-87.67504,41.96175
30260,S,Montrose (Forest Pk-bound),Montrose,Montrose (Blue Line),41330,FALSE,FALSE,TRUE,FALSE,FALSE,FALSE,FALSE,FALSE,FALSE,-87.74357,41.96153
30296,W,Morgan (Harlem-54th/Cermak-bound),Morgan,Morgan (Green & Pink lines),41510,TRUE,FALSE,FALSE,TRUE,FALSE,FALSE,FALSE,TRUE,FALSE,-87.65219,41.88558
30295,E,Morgan (Loop-63rd-bound),Morgan,Morgan (Green & Pink lines),41510,TRUE,FALSE,FALSE,TRUE,FALSE,FALSE,FALSE,TRUE,FALSE,-87.65219,41.88558
30020,N,Morse (Howard-bound),Morse,Morse (Red Line),40100,FALSE,TRUE,FALSE,FALSE,FALSE,FALSE,FALSE,FALSE,FALSE,-87.6659,42.00836
30021,S,Morse (95th-bound),Morse,Morse (Red Line),40100,FALSE,TRUE,FALSE,FALSE,FALSE,FALSE,FALSE,FALSE,FALSE,-87.6659,42.00836
30126,S,North/Clybourn (95th-bound),North/Clybourn,North/Clybourn (Red Line),40650,FALSE,TRUE,FALSE,FALSE,FALSE,FALSE,FALSE,FALSE,FALSE,-87.64917,41.91065
30125,N,North/Clybourn (Howard-bound),North/Clybourn,North/Clybourn (Red Line),40650,FALSE,TRUE,FALSE,FALSE,FALSE,FALSE,FALSE,FALSE,FALSE,-87.64917,41.91065
30079,S,Noyes (Howard-Loop-bound),Noyes,Noyes (Purple Line),40400,FALSE,FALSE,FALSE,FALSE,FALSE,TRUE,FALSE,FALSE,FALSE,-87.68333,42.05828
30078,N,Noyes (Linden-bound),Noyes,Noyes (Purple Line),40400,FALSE,FALSE,FALSE,FALSE,FALSE,TRUE,FALSE,FALSE,FALSE,-87.68333,42.05828
30263,E,Oak Park (63rd-bound),Oak Park,Oak Park (Green Line),41350,FALSE,FALSE,FALSE,TRUE,FALSE,FALSE,FALSE,FALSE,FALSE,-87.79378,41.88698
30034,E,Oak Park (O'Hare-bound),Oak Park,Oak Park (Blue Line),40180,FALSE,FALSE,TRUE,FALSE,FALSE,FALSE,FALSE,FALSE,FALSE,-87.7916,41.8721
30035,W,Oak Park (Forest Pk-bound),Oak Park,Oak Park (Blue Line),40180,FALSE,FALSE,TRUE,FALSE,FALSE,FALSE,FALSE,FALSE,FALSE,-87.7916,41.8721
30264,W,Oak Park (Harlem-bound),Oak Park,Oak Park (Green Line),41350,FALSE,FALSE,FALSE,TRUE,FALSE,FALSE,FALSE,FALSE,FALSE,-87.79378,41.88698
30297,N,Oakton-Skokie (Dempster-Skokie-bound),Oakton-Skokie,Oakton-Skokie (Yellow Line),41680,TRUE,FALSE,FALSE,FALSE,FALSE,FALSE,TRUE,FALSE,FALSE,-87.74722,42.02624
30298,S,Oakton-Skokie (Howard-bound),Oakton-Skokie,Oakton-Skokie (Yellow Line),41680,TRUE,FALSE,FALSE,FALSE,FALSE,FALSE,TRUE,FALSE,FALSE,-87.74722,42.02624
30172,S,O'Hare (Forest Pk-bound),O'Hare,O'Hare (Blue Line),40890,TRUE,FALSE,TRUE,FALSE,FALSE,FALSE,FALSE,FALSE,FALSE,-87.90422,41.97766
30171,N,O'Hare (Terminal Arrival),O'Hare,O'Hare (Blue Line),40890,TRUE,FALSE,TRUE,FALSE,FALSE,FALSE,FALSE,FALSE,FALSE,-87.90422,41.97766
30254,S,Paulina (Loop-bound),Paulina,Paulina (Brown Line),41310,TRUE,FALSE,FALSE,FALSE,TRUE,FALSE,FALSE,FALSE,FALSE,-87.6709,41.94362
30253,N,Paulina (Kimball-bound),Paulina,Paulina (Brown Line),41310,TRUE,FALSE,FALSE,FALSE,TRUE,FALSE,FALSE,FALSE,FALSE,-87.6709,41.94362
30199,E,Polk (Loop-bound),Polk,Polk (Pink Line),41030,TRUE,FALSE,FALSE,FALSE,FALSE,FALSE,FALSE,TRUE,FALSE,-87.66953,41.87155
30200,W,Polk (54th/Cermak-bound),Polk,Polk (Pink Line),41030,TRUE,FALSE,FALSE,FALSE,FALSE,FALSE,FALSE,TRUE,FALSE,-87.66953,41.87155
30006,W,Pulaski (Harlem-bound),Pulaski,Pulaski (Green Line),40030,TRUE,FALSE,FALSE,TRUE,FALSE,FALSE,FALSE,FALSE,FALSE,-87.7254,41.88541
30180,W,Pulaski (Forest Pk-bound),Pulaski,Pulaski (Blue Line),40920,FALSE,FALSE,TRUE,FALSE,FALSE,FALSE,FALSE,FALSE,FALSE,-87.72566,41.87379
30028,E,Pulaski (Loop-bound),Pulaski,Pulaski (Pink Line),40150,TRUE,FALSE,FALSE,FALSE,FALSE,FALSE,FALSE,TRUE,FALSE,-87.72431,41.85373
30186,S,Pulaski (Midway-bound),Pulaski,Pulaski (Orange Line),40960,TRUE,FALSE,FALSE,FALSE,FALSE,FALSE,FALSE,FALSE,TRUE,-87.72449,41.79975
30179,E,Pulaski (O'Hare-bound),Pulaski,Pulaski (Blue Line),40920,FALSE,FALSE,TRUE,FALSE,FALSE,FALSE,FALSE,FALSE,FALSE,-87.72566,41.87379
30185,N,Pulaski (Loop-bound),Pulaski,Pulaski (Orange Line),40960,TRUE,FALSE,FALSE,FALSE,FALSE,FALSE,FALSE,FALSE,TRUE,-87.72449,41.79975
30005,E,Pulaski (63rd-bound),Pulaski,Pulaski (Green Line),40030,TRUE,FALSE,FALSE,TRUE,FALSE,FALSE,FALSE,FALSE,FALSE,-87.7254,41.88541
30029,W,Pulaski (54th/Cermak-bound),Pulaski,Pulaski (Pink Line),40150,TRUE,FALSE,FALSE,FALSE,FALSE,FALSE,FALSE,TRUE,FALSE,-87.72431,41.85373
30007,N,Quincy/Wells (Inner Loop),Quincy/Wells,"Quincy/Wells (Brown, Orange, Purple & Pink lines)",40040,TRUE,FALSE,FALSE,FALSE,FALSE,TRUE,FALSE,TRUE,TRUE,-87.63374,41.87872
30008,S,Quincy/Wells (Outer Loop),Quincy/Wells,"Quincy/Wells (Brown, Orange, Purple & Pink lines)",40040,TRUE,FALSE,FALSE,FALSE,TRUE,FALSE,FALSE,FALSE,FALSE,-87.63374,41.87872
30092,E,Racine (O'Hare-bound),Racine,Racine (Blue Line),40470,FALSE,FALSE,TRUE,FALSE,FALSE,FALSE,FALSE,FALSE,FALSE,-87.65945,41.87592
30093,W,Racine (Forest Pk-bound),Racine,Racine (Blue Line),40470,FALSE,FALSE,TRUE,FALSE,FALSE,FALSE,FALSE,FALSE,FALSE,-87.65945,41.87592
30120,W,Ridgeland (Harlem-bound),Ridgeland,Ridgeland (Green Line),40610,FALSE,FALSE,FALSE,TRUE,FALSE,FALSE,FALSE,FALSE,FALSE,-87.78366,41.88715
30119,E,Ridgeland (63rd-bound),Ridgeland,Ridgeland (Green Line),40610,FALSE,FALSE,FALSE,TRUE,FALSE,FALSE,FALSE,FALSE,FALSE,-87.78366,41.88715
30196,S,Rockwell (Loop-bound),Rockwell,Rockwell (Brown Line),41010,TRUE,FALSE,FALSE,FALSE,TRUE,FALSE,FALSE,FALSE,FALSE,-87.6941,41.96611
30195,N,Rockwell (Kimball-bound),Rockwell,Rockwell (Brown Line),41010,TRUE,FALSE,FALSE,FALSE,TRUE,FALSE,FALSE,FALSE,FALSE,-87.6941,41.96611
30269,N,Roosevelt (Howard-bound),Roosevelt,"Roosevelt (Red, Orange & Green lines)",41400,TRUE,TRUE,FALSE,FALSE,FALSE,FALSE,FALSE,FALSE,FALSE,-87.6274,41.86736
30081,S,Roosevelt (Midway-63rd-bound),Roosevelt,"Roosevelt (Red, Orange & Green lines)",41400,TRUE,FALSE,FALSE,TRUE,FALSE,FALSE,FALSE,FALSE,TRUE,-87.62659,41.8674
30080,N,Roosevelt (Loop-Harlem-bound),Roosevelt,"Roosevelt (Red, Orange & Green lines)",41400,TRUE,FALSE,FALSE,TRUE,FALSE,FALSE,FALSE,FALSE,TRUE,-87.62659,41.8674
30270,S,Roosevelt (95th-bound),Roosevelt,"Roosevelt (Red, Orange & Green lines)",41400,TRUE,TRUE,FALSE,FALSE,FALSE,FALSE,FALSE,FALSE,FALSE,-87.6274,41.86736
30160,S,Rosemont (Forest Pk-bound),Rosemont,Rosemont (Blue Line),40820,TRUE,FALSE,TRUE,FALSE,FALSE,FALSE,FALSE,FALSE,FALSE,-87.85938,41.9835
30159,N,Rosemont (O'Hare-bound),Rosemont,Rosemont (Blue Line),40820,TRUE,FALSE,TRUE,FALSE,FALSE,FALSE,FALSE,FALSE,FALSE,-87.85938,41.9835
30156,S,Sedgwick (Loop-bound),Sedgwick,Sedgwick (Brown & Purple lines),40800,TRUE,FALSE,FALSE,FALSE,TRUE,TRUE,FALSE,FALSE,FALSE,-87.6393,41.9104
30155,N,Sedgwick (Kimball-Linden-bound),Sedgwick,Sedgwick (Brown & Purple lines),40800,TRUE,FALSE,FALSE,FALSE,TRUE,TRUE,FALSE,FALSE,FALSE,-87.6393,41.9104
30017,S,Sheridan (95th-bound),Sheridan,Sheridan (Red Line),40080,FALSE,TRUE,FALSE,FALSE,FALSE,FALSE,FALSE,FALSE,FALSE,-87.65492,41.95377
30294,S,Sheridan (Loop-bound),Sheridan,Sheridan (Red Line),40080,FALSE,FALSE,FALSE,FALSE,FALSE,FALSE,FALSE,FALSE,FALSE,-87.65492,41.95377
30016,N,Sheridan (Howard-bound),Sheridan,Sheridan (Red Line),40080,FALSE,TRUE,FALSE,FALSE,FALSE,FALSE,FALSE,FALSE,FALSE,-87.65492,41.95377
30293,N,Sheridan (Howard-Linden-bound),Sheridan,Sheridan (Red Line),40080,FALSE,FALSE,FALSE,FALSE,FALSE,FALSE,FALSE,FALSE,FALSE,-87.65492,41.95377
30164,S,South Blvd (Howard-Loop-bound),South Boulevard,South Boulevard (Purple Line),40840,FALSE,FALSE,FALSE,FALSE,FALSE,TRUE,FALSE,FALSE,FALSE,-87.67832,42.02761
30163,N,South Blvd (Linden-bound),South Boulevard,South Boulevard (Purple Line),40840,FALSE,FALSE,FALSE,FALSE,FALSE,TRUE,FALSE,FALSE,FALSE,-87.67832,42.02761
30071,S,Southport (Loop-bound),Southport,Southport (Brown Line),40360,TRUE,FALSE,FALSE,FALSE,TRUE,FALSE,FALSE,FALSE,FALSE,-87.66361,41.94374
30070,N,Southport (Kimball-bound),Southport,Southport (Brown Line),40360,TRUE,FALSE,FALSE,FALSE,TRUE,FALSE,FALSE,FALSE,FALSE,-87.66361,41.94374
30036,N,Sox-35th (Howard-bound),Sox-35th,Sox-35th (Red Line),40190,TRUE,TRUE,FALSE,FALSE,FALSE,FALSE,FALSE,FALSE,FALSE,-87.63063,41.83119
30037,S,Sox-35th (95th-bound),Sox-35th,Sox-35th (Red Line),40190,TRUE,TRUE,FALSE,FALSE,FALSE,FALSE,FALSE,FALSE,FALSE,-87.63063,41.83119
30050,E,State/Lake (Inner Loop),State/Lake,"State/Lake (Brown, Green, Orange, Pink & Purple lines)",40260,FALSE,FALSE,FALSE,TRUE,FALSE,TRUE,FALSE,TRUE,TRUE,-87.62783,41.88574
30051,W,State/Lake (Outer Loop),State/Lake,"State/Lake (Brown, Green, Orange, Pink & Purple lines)",40260,FALSE,FALSE,FALSE,TRUE,TRUE,FALSE,FALSE,FALSE,FALSE,-87.62783,41.88574
30169,N,Thorndale (Howard-bound),Thorndale,Thorndale (Red Line),40880,FALSE,TRUE,FALSE,FALSE,FALSE,FALSE,FALSE,FALSE,FALSE,-87.65907,41.99025
30170,S,Thorndale (95th-bound),Thorndale,Thorndale (Red Line),40880,FALSE,TRUE,FALSE,FALSE,FALSE,FALSE,FALSE,FALSE,FALSE,-87.65907,41.99025
30068,E,UIC-Halsted (O'Hare-bound),UIC-Halsted,UIC-Halsted (Blue Line),40350,TRUE,FALSE,TRUE,FALSE,FALSE,FALSE,FALSE,FALSE,FALSE,-87.6497,41.87547
30069,W,UIC-Halsted (Forest Pk-bound),UIC-Halsted,UIC-Halsted (Blue Line),40350,TRUE,FALSE,TRUE,FALSE,FALSE,FALSE,FALSE,FALSE,FALSE,-87.6497,41.87547
30073,S,Washington (Forest Pk-bound),Washington,Washington (Blue Line),40370,FALSE,FALSE,TRUE,FALSE,FALSE,FALSE,FALSE,FALSE,FALSE,-87.62944,41.88316
30072,N,Washington (O'Hare-bound),Washington,Washington (Blue Line),40370,FALSE,FALSE,TRUE,FALSE,FALSE,FALSE,FALSE,FALSE,FALSE,-87.62944,41.88316
30384,S,Washington/Wabash (Inner Loop),Washington/Wabash,"Washington/Wabash (Brown, Green, Orange, Purple & Pink lines)",41700,TRUE,FALSE,FALSE,TRUE,FALSE,TRUE,FALSE,TRUE,TRUE,-87.62618,41.88322
30383,N,Washington/Wabash (Outer Loop),Washington/Wabash,"Washington/Wabash (Brown, Green, Orange, Purple & Pink lines)",41700,TRUE,FALSE,FALSE,TRUE,TRUE,FALSE,FALSE,FALSE,FALSE,-87.62618,41.88322
30142,S,Washington/Wells (Outer Loop),Washington/Wells,"Washington/Wells (Brown, Orange, Purple & Pink lines)",40730,TRUE,FALSE,FALSE,FALSE,TRUE,FALSE,FALSE,FALSE,FALSE,-87.63378,41.88269
30141,N,Washington/Wells (Inner Loop),Washington/Wells,"Washington/Wells (Brown, Orange, Purple & Pink lines)",40730,TRUE,FALSE,FALSE,FALSE,FALSE,TRUE,FALSE,TRUE,TRUE,-87.63378,41.88269
30232,S,Wellington (Loop-bound),Wellington,Wellington (Brown & Purple lines),41210,TRUE,FALSE,FALSE,FALSE,TRUE,TRUE,FALSE,FALSE,FALSE,-87.65326,41.93603
30231,N,Wellington (Kimball-Linden-bound),Wellington,Wellington (Brown & Purple lines),41210,TRUE,FALSE,FALSE,FALSE,TRUE,TRUE,FALSE,FALSE,FALSE,-87.65326,41.93603
30284,S,Western (Loop-bound),Western,Western (Brown Line),41480,TRUE,FALSE,FALSE,FALSE,TRUE,FALSE,FALSE,FALSE,FALSE,-87.6885,41.96616
30129,N,Western (O'Hare Branch) (O'Hare-bound),Western,Western (Blue Line - O'Hare Branch),40670,TRUE,FALSE,TRUE,FALSE,FALSE,FALSE,FALSE,FALSE,FALSE,-87.68736,41.91615
30042,E,Western (Forest Pk Branch) (O'Hare-bound),Western,Western (Blue Line - Forest Park Branch),40220,FALSE,FALSE,TRUE,FALSE,FALSE,FALSE,FALSE,FALSE,FALSE,-87.68843,41.87547
30061,S,Western (Midway-bound),Western,Western (Orange Line),40310,TRUE,FALSE,FALSE,FALSE,FALSE,FALSE,FALSE,FALSE,TRUE,-87.68401,41.80454
30144,W,Western (54th/Cermak-bound),Western,Western (Pink Line),40740,TRUE,FALSE,FALSE,FALSE,FALSE,FALSE,FALSE,TRUE,FALSE,-87.68512,41.85422
30043,W,Western (Forest Pk Branch) (Forest Pk-bound),Western,Western (Blue Line - Forest Park Branch),40220,FALSE,FALSE,TRUE,FALSE,FALSE,FALSE,FALSE,FALSE,FALSE,-87.68843,41.87547
30060,N,Western (Loop-bound),Western,Western (Orange Line),40310,TRUE,FALSE,FALSE,FALSE,FALSE,FALSE,FALSE,FALSE,TRUE,-87.68401,41.80454
30130,S,Western (O'Hare Branch) (Forest Pk-bound),Western,Western (Blue Line - O'Hare Branch),40670,TRUE,FALSE,TRUE,FALSE,FALSE,FALSE,FALSE,FALSE,FALSE,-87.68736,41.91615
30283,N,Western (Kimball-bound),Western,Western (Brown Line),41480,TRUE,FALSE,FALSE,FALSE,TRUE,FALSE,FALSE,FALSE,FALSE,-87.6885,41.96616
30143,E,Western (Loop-bound),Western,Western (Pink Line),40740,TRUE,FALSE,FALSE,FALSE,FALSE,FALSE,FALSE,TRUE,FALSE,-87.68512,41.85422
30385,S,Wilson (Loop-bound),Wilson,Wilson (Red & Purple lines),40540,TRUE,FALSE,FALSE,FALSE,FALSE,TRUE,FALSE,FALSE,FALSE,-87.65758,41.96427
30386,N,Wilson (Linden-bound),Wilson,Wilson (Red & Purple lines),40540,TRUE,FALSE,FALSE,FALSE,FALSE,TRUE,FALSE,FALSE,FALSE,-87.65758,41.96427
30106,S,Wilson (95th-bound),Wilson,Wilson (Red & Purple lines),40540,TRUE,TRUE,FALSE,FALSE,FALSE,FALSE,FALSE,FALSE,FALSE,-87.65758,41.96427
30105,N,Wilson (Howard-bound),Wilson,Wilson (Red & Purple lines),40540,TRUE,TRUE,FALSE,FALSE,FALSE,FALSE,FALSE,FALSE,FALSE,-87.65758,41.96427